City_ID,City,Lat,Lng,Max Temp,Humidity,Cloudiness,Wind Speed,Country,Date
0,kapa'a,22.0752,-159.319,26.17,82,0,3.09,US,1699037407
1,ribeira grande,38.5167,-28.7,21.22,94,75,9.26,PT,1699037407
2,kloulklubed,7.0419,134.2556,25.28,75,79,1.93,PW,1699037408
3,petropavlovsk-kamchatsky,53.0452,158.6483,4.14,64,75,6.26,RU,1699037408
4,kodiak,57.79,-152.4072,7.73,87,100,5.14,US,1699037408
5,puerto ayora,-0.7393,-90.3518,29.98,85,99,3.58,EC,1699037315
6,wailua homesteads,22.0669,-159.378,25.42,83,0,3.09,US,1699037408
7,coahuayana de hidalgo,18.7,-103.6583,32.53,57,16,1.51,MX,1699037409
8,koungou,-12.7336,45.2042,27.84,78,0,4.63,YT,1699037409
9,whitehorse,60.7161,-135.0538,0.45,94,100,4.63,CA,1699037409
10,antsiranana,-12.2787,49.2917,25.23,88,100,3.42,MG,1699037410
11,yeonggwang,35.275,126.5094,16.81,95,100,0.7,KR,1699037410
12,grytviken,-54.2811,-36.5092,3.55,85,25,5.47,GS,1699037410
13,adamstown,-25.066,-130.1015,22.7,81,100,7.08,PN,1699037410
14,callao,-12.0667,-77.15,21.16,73,75,4.12,PE,1699037353
15,albina,5.5,-54.05,32.9,51,66,4.13,SR,1699037411
16,jaguariaiva,-24.2511,-49.7058,24.15,84,23,6.31,BR,1699037411
17,bethel,41.3712,-73.414,13.69,43,0,5.66,US,1699037411
18,tutoia,-2.7619,-42.2744,28.91,74,1,6.65,BR,1699037411
19,saudarkrokur,65.7461,-19.6394,-1.21,80,100,1.39,IS,1699037412
20,mersa matruh,31.3525,27.2453,27.11,36,0,0.0,EG,1699037378
21,bilibino,68.0546,166.4372,-11.63,91,100,1.63,RU,1699037412
22,micheweni,-4.9667,39.8333,24.45,90,100,3.88,TZ,1699037412
23,albany,42.6001,-73.9662,14.58,38,45,1.34,US,1699037206
24,yellowknife,62.456,-114.3525,-5.71,93,100,4.12,CA,1699037412
25,oral,51.2333,51.3667,7.99,87,100,2.0,KZ,1699037412
26,kurumkan,54.3,110.3,-10.49,43,0,1.34,RU,1699037413
27,ilulissat,69.2167,-51.1,-1.99,54,75,6.69,GL,1699037413
28,ponta delgada,37.7333,-25.6667,21.77,94,40,8.23,PT,1699037119
29,puerto natales,-51.7236,-72.4875,12.25,50,75,9.26,CL,1699037261
30,ushuaia,-54.8,-68.3,10.79,47,0,8.23,AR,1699037225
31,thompson,55.7435,-97.8558,-5.91,63,75,8.23,CA,1699037414
32,bodo,67.28,14.405,0.43,65,0,12.86,NO,1699037414
33,xilin hot,43.9667,116.0333,0.43,69,10,1.94,CN,1699037414
34,tiksi,71.6872,128.8694,-18.56,97,97,3.12,RU,1699037414
35,mogadishu,2.0371,45.3438,27.41,77,99,3.01,SO,1699037415
36,stanley,54.868,-1.6985,7.01,89,20,5.14,GB,1699037308
37,huangmei,30.1924,116.025,20.48,65,17,1.77,CN,1699037415
38,avarua,-21.2078,-159.775,22.03,68,75,5.66,CK,1699037329
39,vorgashor,67.5833,63.95,-8.83,95,100,5.61,RU,1699037416
40,karratha,-20.7377,116.8463,28.79,41,15,4.76,AU,1699037381
41,atherton,53.5237,-2.4935,9.68,93,35,4.02,GB,1699037416
42,daru,-9.0763,143.2092,25.27,86,100,5.99,PG,1699037416
43,launceston,-41.45,147.1667,7.8,76,100,3.6,AU,1699037417
44,elblag,54.1522,19.4088,11.1,93,100,5.59,PL,1699037417
45,aykhal,66.0,111.5,-25.37,100,97,1.81,RU,1699037417
46,acapulco de juarez,16.8634,-99.8901,29.86,64,29,2.16,MX,1699037365
47,askoy,60.4092,5.226,10.16,50,75,2.57,NO,1699037417
48,olonkinbyen,70.9221,-8.7187,1.25,77,100,3.94,SJ,1699037319
49,iqaluit,63.7506,-68.5145,-3.15,73,75,9.26,CA,1699037229
50,georgetown,5.4112,100.3354,26.96,89,20,3.09,MY,1699037418
51,jamestown,42.097,-79.2353,15.77,26,0,7.72,US,1699037230
52,blackmans bay,-43.0167,147.3167,5.41,83,60,2.41,AU,1699037418
53,port-aux-francais,-49.35,70.2167,1.9,64,11,15.16,TF,1699037418
54,maintirano,-18.0667,44.0167,25.08,72,36,7.88,MG,1699037418
55,san antonio de pale,-1.4014,5.6325,26.35,84,100,3.06,GQ,1699037419
56,mitu,1.1983,-70.1733,30.94,60,100,0.88,CO,1699037419
57,vilyuysk,63.7553,121.6247,-27.36,100,96,0.49,RU,1699037419
58,isafjordur,66.0755,-23.124,3.02,60,40,6.17,IS,1699037337
59,afaahiti,-17.75,-149.2833,25.93,85,98,5.93,PF,1699037316
60,peniche,39.3558,-9.3811,16.98,87,100,7.77,PT,1699037420
61,aasiaat,68.7098,-52.8699,-9.03,94,97,2.18,GL,1699037324
62,hotan,37.0997,79.9269,10.72,22,0,1.63,CN,1699037373
63,tobelo,1.7284,128.0095,26.53,79,100,1.58,ID,1699037420
64,lompoc,34.6391,-120.4579,28.8,21,20,0.45,US,1699037420
65,kavaratti,10.5669,72.642,28.57,72,100,1.6,IN,1699037420
66,oriximina,-1.7656,-55.8661,35.04,36,85,0.87,BR,1699037421
67,onega,63.9061,38.1404,-4.09,93,100,2.02,RU,1699037421
68,huron,41.1501,-82.5499,16.12,29,97,8.8,US,1699037421
69,karlskoga,59.3267,14.5239,6.62,99,100,1.56,SE,1699037421
70,lukoyanov,55.0277,44.4786,1.2,89,6,0.48,RU,1699037421
71,chonchi,-42.6128,-73.8092,13.95,63,99,1.33,CL,1699037324
72,salinas,36.6777,-121.6555,27.81,27,0,7.2,US,1699037422
73,fale old settlement,-9.3852,-171.2468,28.08,79,100,6.98,TK,1699037341
74,progreso,21.2833,-89.6667,27.06,83,100,8.05,MX,1699037126
75,keflavik,64.0049,-22.5624,3.24,70,0,8.75,IS,1699037422
76,goundam,16.4145,-3.6708,32.16,10,0,2.81,ML,1699037423
77,punta arenas,-53.15,-70.9167,10.06,46,75,6.69,CL,1699037216
78,embi,48.8264,58.1442,7.99,65,100,3.31,KZ,1699037423
79,udachny,66.4167,112.4,-24.2,75,100,1.85,RU,1699037328
80,la romana,18.4273,-68.9728,32.2,58,40,3.09,DO,1699037423
81,bredasdorp,-34.5322,20.0403,17.06,76,0,7.45,ZA,1699037423
82,saipan,15.1355,145.701,27.39,94,40,6.17,MP,1699037423
83,utrik,11.2278,169.8474,27.69,78,46,6.62,MH,1699037331
84,visby,57.6409,18.296,10.12,93,100,5.66,SE,1699037424
85,west island,-12.1568,96.8225,25.99,73,100,6.17,CC,1699037424
86,kalkaman,51.9525,76.0211,-1.65,75,100,5.57,KZ,1699037424
87,devils lake,48.1128,-98.8651,-1.14,84,100,3.09,US,1699037424
88,edinburgh of the seven seas,-37.0676,-12.3116,12.23,73,100,13.66,SH,1699037424
89,papatowai,-46.5619,169.4708,11.49,75,100,4.52,NZ,1699037424
90,kapuskasing,49.4169,-82.4331,1.05,100,100,6.17,CA,1699037425
91,tazovsky,67.4667,78.7,-7.44,92,100,10.51,RU,1699037425
92,baruun-urt,46.6806,113.2792,-4.92,96,100,0.43,MN,1699037425
93,longyearbyen,78.2186,15.6401,-7.09,93,100,4.12,SJ,1699037314
94,lata,40.1629,-8.3327,14.49,89,100,2.21,PT,1699037425
95,waitangi,-43.9535,-176.5597,14.34,98,100,4.92,NZ,1699037426
96,norilsk,69.3535,88.2027,-10.32,73,100,9.26,RU,1699037417
97,anadyr,64.75,177.4833,-5.72,68,0,5.0,RU,1699037426
98,atafu village,-8.5421,-172.5159,28.41,75,100,7.14,TK,1699037426
99,uliastay,47.7417,96.8444,-8.94,95,100,0.46,MN,1699037426
100,berlin,52.5244,13.4105,11.2,81,100,3.09,DE,1699036919
101,boca suno,-0.7167,-77.1333,32.77,43,74,1.62,EC,1699037426
102,hermanus,-34.4187,19.2345,16.63,86,0,7.06,ZA,1699037427
103,pisco,-13.7,-76.2167,22.23,73,100,4.12,PE,1699037337
104,porto novo,6.4965,2.6036,28.9,81,100,2.38,BJ,1699037427
105,valparaiso,-33.0393,-71.6273,28.8,36,0,6.17,CL,1699037237
106,revda,56.801,59.9303,0.69,86,100,5.36,RU,1699037427
107,kaesong,37.9708,126.5544,12.65,73,98,2.49,KP,1699037427
108,mstera,56.3789,41.92,3.1,90,15,1.01,RU,1699037428
109,tura,25.5198,90.2201,19.45,80,0,1.49,IN,1699037428
110,corinto,37.9407,22.9573,19.38,63,100,2.08,GR,1699037428
111,hobyo,5.3505,48.5268,27.21,81,65,4.63,SO,1699037428
112,toliara,-23.35,43.6667,21.97,55,0,9.02,MG,1699037428
113,rongelap,11.1635,166.8941,28.13,72,100,7.54,MH,1699037330
114,san patricio,28.017,-97.5169,26.97,47,0,3.18,US,1699037429
115,yinchuan,38.4681,106.2731,11.35,28,100,1.0,CN,1699037429
116,kourou,5.1552,-52.6478,32.03,67,10,5.1,GF,1699037429
117,pimentel,-6.8367,-79.9342,24.16,60,0,8.23,PE,1699037429
118,portland,45.5234,-122.6762,15.99,88,75,2.68,US,1699036669
119,haiku-pauwela,20.9219,-156.3051,26.69,69,20,2.68,US,1699037429
120,kongolo,-5.3833,27.0,20.11,98,100,1.2,CD,1699037429
121,chenzhou,25.8,113.0333,22.81,79,100,1.57,CN,1699037430
122,barah,13.7,30.3667,30.18,21,96,3.81,SD,1699037430
123,mount gambier,-37.8333,140.7667,10.72,60,100,5.25,AU,1699037430
124,new norfolk,-42.7826,147.0587,6.07,93,18,1.38,AU,1699037317
125,broome,42.2506,-75.833,14.07,40,0,7.2,US,1699037307
126,invercargill,-46.4,168.35,11.12,88,100,2.24,NZ,1699037430
127,olinda,-8.0089,-34.8553,29.85,70,40,6.17,BR,1699037430
128,dondo,-19.6094,34.7431,23.73,80,49,3.28,MZ,1699037431
129,ad dabbah,18.05,30.95,29.58,23,4,4.72,SD,1699037431
130,palasa,18.7667,84.4167,24.08,89,45,1.15,IN,1699037431
131,sakakah,29.9697,40.2064,24.76,38,7,0.39,SA,1699037431
132,sardarshahr,28.4333,74.4833,25.91,24,30,1.59,IN,1699037431
133,hithadhoo,-0.6,73.0833,27.1,83,34,6.03,MV,1699037432
134,dalandzadgad,43.5708,104.425,3.65,51,100,10.16,MN,1699037432
135,strelka,58.0728,93.0344,-11.65,85,91,0.92,RU,1699037432
136,timbuktu,16.7735,-3.0074,31.52,9,0,3.48,ML,1699037432
137,copiapo,-27.3667,-70.3333,18.83,17,0,5.18,CL,1699037432
138,northam,51.0333,-4.2167,10.9,80,28,6.92,GB,1699037433
139,basco,20.4487,121.9702,27.05,82,42,8.21,PH,1699037433
140,uturoa,-16.7333,-151.4333,25.97,79,79,8.16,PF,1699037433
141,hadibu,12.65,54.0333,26.49,76,70,4.01,YE,1699037433
142,lethem,3.3803,-59.7968,35.49,38,100,3.13,GY,1699037433
143,ar ruways,24.1103,52.7306,28.54,64,3,4.35,AE,1699037434
144,ust-nera,64.5667,143.2,-17.53,100,100,1.41,RU,1699037434
145,kolonia town,6.964,158.206,26.0,94,100,2.06,FM,1699037434
146,kitakata,37.65,139.8667,12.65,64,8,0.3,JP,1699037434
147,kalyandurg,14.5452,77.1055,23.57,82,100,4.23,IN,1699037435
148,carnarvon,-24.8667,113.6333,20.44,91,63,4.39,AU,1699037435
149,constantia,44.1833,28.65,17.61,88,100,9.04,RO,1699037435
150,kirkuk,35.4681,44.3922,20.66,56,0,2.22,IQ,1699037271
151,pagar alam,-4.0167,103.2667,21.08,95,100,0.52,ID,1699037435
152,port douglas,-16.4833,145.4667,23.91,77,100,2.58,AU,1699037436
153,mana,5.6592,-53.7767,29.54,71,48,6.07,GF,1699037436
154,cannonvale,-20.2833,148.7,22.66,84,30,3.02,AU,1699037436
155,kingston,17.997,-76.7936,32.53,71,20,11.32,JM,1699036824
156,padangsidempuan,1.3667,99.2667,22.1,99,100,0.61,ID,1699037436
157,dul'durga,50.6761,113.5931,-10.26,96,94,0.54,RU,1699037346
158,manaure,11.7751,-72.4445,31.35,58,10,7.58,CO,1699037436
159,sao benedito do rio preto,-3.3336,-43.5283,34.76,40,50,2.81,BR,1699037437
160,ujae,8.9322,165.7642,28.61,73,100,8.15,MH,1699037437
161,puerto santa,-8.9906,-78.6456,20.99,75,16,4.87,PE,1699037437
162,hawaiian paradise park,19.5933,-154.9731,27.15,81,40,3.09,US,1699037437
163,somotillo,13.0433,-86.9064,31.08,73,69,2.25,NI,1699037437
164,kalemie,-5.9475,29.1947,21.31,86,100,1.55,CD,1699037437
165,sena madureira,-9.0656,-68.6569,36.7,32,100,1.11,BR,1699037437
166,sisimiut,66.9395,-53.6735,-4.7,86,100,3.62,GL,1699037438
167,sanctuary point,-35.1114,150.629,16.53,87,100,3.39,AU,1699037438
168,nahiyat ash shinafiyah,31.5874,44.6602,26.28,46,20,1.43,IQ,1699037438
169,tual,-5.6667,132.75,27.63,77,100,4.82,ID,1699037376
170,bugana,7.9992,7.5836,28.15,65,100,2.13,NG,1699037438
171,puerto baquerizo moreno,-0.9,-89.6,29.55,66,40,6.17,EC,1699037439
172,suihua,46.6406,126.9969,-10.7,49,1,2.21,CN,1699037439
173,buka,40.8108,69.1986,12.62,27,6,0.94,UZ,1699037439
174,nar'yan-mar,67.6713,53.087,-4.38,95,19,4.92,RU,1699037439
175,bakanas,44.8081,76.2772,6.18,60,19,6.87,KZ,1699037439
176,maumere,-8.6199,122.2111,25.75,79,97,1.22,ID,1699037439
177,xichang,27.8964,102.2634,11.59,88,3,0.85,CN,1699037440
178,nadi,-17.8,177.4167,24.0,83,20,2.06,FJ,1699037440
179,smidovich,48.6,133.8167,-14.94,85,4,4.52,RU,1699037440
180,pacific grove,36.6177,-121.9166,27.58,40,0,2.24,US,1699037440
181,ghat,24.9647,10.1728,25.46,14,1,2.23,LY,1699037440
182,antofagasta,-23.65,-70.4,18.6,64,3,3.96,CL,1699037440
183,labrador city,52.9463,-66.9114,-1.05,80,100,5.14,CA,1699037440
184,bechar,31.6167,-2.2167,25.18,15,0,1.54,DZ,1699037441
185,hamilton,39.1834,-84.5333,17.03,30,0,7.72,US,1699037441
186,altoona,40.5187,-78.3947,16.87,30,7,1.34,US,1699037276
187,ancud,-41.8697,-73.8203,11.24,68,99,4.22,CL,1699037310
188,oneonta,42.4529,-75.0638,13.5,39,28,6.06,US,1699037388
189,okha,53.5739,142.9478,-4.01,84,100,10.82,RU,1699037309
190,okeho,8.0333,3.35,27.02,61,100,1.79,NG,1699037441
191,juhaynah,26.6732,31.4976,28.18,25,3,2.28,EG,1699037442
192,tecalitlan,19.4667,-103.3,26.79,45,61,0.73,MX,1699037442
193,lihue,21.9789,-159.3672,25.76,82,0,3.09,US,1699037325
194,ocean shores,46.9737,-124.1563,14.41,96,40,5.66,US,1699037436
195,tsiombe,-25.3,45.4833,19.61,65,6,5.66,MG,1699037442
196,vila franca do campo,37.7167,-25.4333,21.6,99,2,7.11,PT,1699037442
197,talnakh,69.4865,88.3972,-10.44,74,100,9.94,RU,1699037442
198,mareeba,-17.0,145.4333,20.4,93,97,1.42,AU,1699037443
199,dedougou,12.4667,-3.4667,31.59,15,5,1.93,BF,1699037443
200,anar darah,32.7587,61.654,19.51,21,100,1.68,AF,1699037443
201,ouro preto do oeste,-10.7481,-62.2158,37.56,26,100,0.95,BR,1699037443
202,lesnoy,57.6198,63.0784,3.32,85,94,6.98,RU,1699037443
203,de aar,-30.6497,24.0123,20.62,55,100,8.22,ZA,1699037443
204,labuan,5.2767,115.2417,25.2,94,40,0.0,MY,1699037443
205,port mathurin,-19.6833,63.4167,24.44,78,91,4.37,MU,1699037444
206,la passe,45.5549,-0.8967,13.32,68,100,10.21,FR,1699037444
207,freeport,40.6576,-73.5832,14.58,45,0,5.66,US,1699037336
208,nema,57.5067,50.5011,-0.55,84,16,3.23,RU,1699037444
209,mount darwin,-16.7725,31.5838,22.0,41,100,4.19,ZW,1699037444
210,flin flon,54.7682,-101.865,-8.09,79,75,4.63,CA,1699037444
211,champerico,14.3,-91.9167,31.3,72,100,2.89,GT,1699037444
212,essaouira,31.5125,-9.77,20.72,73,0,7.72,MA,1699037444
213,dudinka,69.4058,86.1778,-10.18,92,100,12.52,RU,1699037445
214,port alfred,-33.5906,26.891,18.43,91,100,4.0,ZA,1699037445
215,el calafate,-50.3408,-72.2768,10.17,50,29,3.95,AR,1699037445
216,necochea,-38.5473,-58.7368,12.49,65,69,4.14,AR,1699037445
217,krasnaya gora,52.9995,31.6023,5.97,85,0,7.2,RU,1699037445
218,gutao,37.2025,112.1781,9.88,41,52,1.07,CN,1699037446
219,sao joao da barra,-21.6403,-41.0511,30.05,85,15,6.23,BR,1699037446
220,vazante,-17.9869,-46.9078,28.91,59,99,1.45,BR,1699037314
221,barra de santo antonio,-9.4047,-35.5072,30.6,67,75,6.3,BR,1699037446
222,casper,42.8666,-106.3131,14.34,43,20,7.2,US,1699037446
223,namibe,-15.1961,12.1522,20.02,83,3,2.93,AO,1699037446
224,badger,64.8,-147.5333,-4.07,58,100,4.12,US,1699037311
225,amga,60.8953,131.9608,-27.21,100,100,0.64,RU,1699037446
226,tamanrasset,22.785,5.5228,23.95,12,0,3.09,DZ,1699037447
227,port lincoln,-34.7333,135.8667,12.55,79,17,7.46,AU,1699037447
228,badvel,14.75,79.05,24.63,89,100,1.03,IN,1699037447
229,mogocha,53.7333,119.7667,-16.22,52,1,0.32,RU,1699037447
230,college,64.8569,-147.8028,-4.03,58,100,4.12,US,1699037447
231,sitka,57.0531,-135.33,9.94,76,100,5.66,US,1699037350
232,nuuk,64.1835,-51.7216,1.34,64,40,2.06,GL,1699037374
233,minjur,13.2667,80.2667,26.67,80,100,2.37,IN,1699037448
234,camacupa,-12.0167,17.4833,19.91,78,99,1.22,AO,1699037448
235,xinyuan,37.3,99.0,-4.32,68,100,3.12,CN,1699037448
236,howard springs,-12.497,131.047,27.12,87,4,2.25,AU,1699037448
237,mahina,-17.5065,-149.489,26.87,78,75,1.54,PF,1699037448
238,carutapera,-1.195,-46.02,30.23,63,25,4.76,BR,1699037448
239,minas de marcona,-15.2119,-75.1103,19.87,54,6,6.47,PE,1699037273
240,nizhneangarsk,55.7833,109.55,-12.78,46,8,3.13,RU,1699037449
241,korla,41.7597,86.1469,7.92,36,6,1.92,CN,1699037449
242,santa ana,33.7456,-117.8678,30.2,30,0,0.89,US,1699037287
243,happy valley-goose bay,53.3168,-60.3315,4.17,45,75,4.63,CA,1699037449
244,yeniseysk,58.4497,92.1703,-9.47,74,97,1.34,RU,1699037449
245,bronderslev,57.2702,9.941,9.92,90,80,5.92,DK,1699037449
246,bandarbeyla,9.4942,50.8122,26.76,82,77,6.61,SO,1699037449
247,praia da vitoria,38.7333,-27.0667,24.14,69,40,6.3,PT,1699037450
248,tolanaro,-25.0319,46.9987,19.04,88,75,2.06,MG,1699037450
249,port blair,11.6667,92.75,26.02,89,40,1.03,IN,1699037450
250,akureyri,65.6835,-18.0878,0.96,93,100,4.12,IS,1699037450
251,bambari,5.768,20.6757,22.44,93,100,0.82,CF,1699037450
252,kangaroo flat,-36.8,144.25,9.18,47,87,4.81,AU,1699037450
253,la paz,-16.5,-68.15,19.99,25,20,6.17,BO,1699037365
254,margate,51.3813,1.3862,10.94,90,97,4.02,GB,1699037383
255,cabo san lucas,22.8909,-109.9124,32.01,58,2,1.69,MX,1699037222
256,ketchikan,55.3422,-131.6461,9.99,100,100,2.06,US,1699037315
257,vorkuta,67.5,64.0,-8.59,95,100,5.74,RU,1699037163
258,codrington,-38.2667,141.9667,11.14,60,100,6.83,AU,1699037319
259,kruisfontein,-34.0033,24.7314,18.28,67,100,2.48,ZA,1699037451
260,pueblo nuevo,23.3833,-105.3833,24.05,22,97,2.08,MX,1699037451
261,san sebastian de la gomera,28.0916,-17.1133,25.2,64,100,5.14,ES,1699037451
262,huarmey,-10.0681,-78.1522,22.06,70,15,4.79,PE,1699037451
263,dayton,39.7589,-84.1916,16.89,29,40,7.72,US,1699037247
264,lebu,-37.6167,-73.65,13.22,68,3,6.66,CL,1699037298
265,constitucion,-35.3333,-72.4167,18.21,54,8,8.34,CL,1699037452
266,tchibanga,-2.85,11.0333,22.32,97,100,0.28,GA,1699037452
267,koh kong,11.6175,102.9806,25.74,86,100,1.74,KH,1699037452
268,remire-montjoly,4.9167,-52.2667,32.02,66,20,7.2,GF,1699037452
269,kano,12.0001,8.5167,28.56,22,94,2.52,NG,1699037452
270,ivdel',60.6911,60.4206,1.22,76,11,5.81,RU,1699037452
271,belogradchik,43.6272,22.6836,9.52,92,100,1.12,BG,1699037452
272,ambon,-3.6954,128.1814,26.16,15,20,1.54,ID,1699037452
273,kununurra,-15.7667,128.7333,25.99,73,25,1.54,AU,1699037194
274,copala,16.65,-98.9833,30.4,59,62,2.47,MX,1699037453
275,marsh harbour,26.5412,-77.0636,24.68,78,100,11.3,BS,1699037453
276,bulgan,48.8125,103.5347,-4.98,79,100,7.84,MN,1699037453
277,arraial do cabo,-22.9661,-42.0278,29.98,74,0,11.32,BR,1699037453
278,an nuhud,12.7,28.4333,29.73,21,100,5.02,SD,1699037453
279,tlalixtac de cabrera,17.0667,-96.65,20.61,67,90,3.55,MX,1699037453
280,grand-lahou,5.1367,-5.0242,26.24,87,10,3.71,CI,1699037453
281,san martin,-33.081,-68.4681,22.3,16,1,4.91,AR,1699037454
282,nantucket,41.2835,-70.0995,12.22,62,20,7.72,US,1699037375
283,iskateley,67.6803,53.1512,-4.43,95,19,4.92,RU,1699037454
284,quiberon,47.4841,-3.1196,12.89,80,100,4.02,FR,1699037454
285,chibougamau,49.9168,-74.3659,1.79,93,100,7.72,CA,1699037335
286,forrest city,35.0081,-90.7898,17.47,21,3,5.37,US,1699037454
287,mount pearl,47.5166,-52.7813,6.36,75,75,5.66,CA,1699037235
288,mount isa,-20.7333,139.5,26.87,18,14,3.6,AU,1699037454
289,alva,56.1528,-3.8051,9.26,92,100,0.89,GB,1699037454
290,vila do maio,15.1333,-23.2167,30.44,80,15,7.51,CV,1699037454
291,vilyuchinsk,52.9306,158.4028,4.96,79,100,2.37,RU,1699037455
292,melfi,40.9965,15.6514,14.31,65,0,9.73,IT,1699037455
293,sabang,5.8933,95.3214,27.24,79,95,2.0,ID,1699037455
294,nova sintra,14.8667,-24.7167,24.57,75,12,9.96,CV,1699037318
295,kalmunai,7.4167,81.8167,25.31,87,100,2.34,LK,1699037354
296,takoradi,4.8845,-1.7554,26.18,86,93,4.65,GH,1699037455
297,marondera,-18.1853,31.5519,14.87,58,6,2.71,ZW,1699037455
298,newman,37.3138,-121.0208,22.36,40,8,1.28,US,1699037455
299,darwin,-12.4611,130.8418,27.16,88,40,2.06,AU,1699037227
300,banapur,19.7833,85.1833,25.5,82,21,1.19,IN,1699037456
301,cestos city,5.46,-9.5828,26.35,84,8,2.76,LR,1699037456
302,hami,42.8,93.45,8.95,29,80,6.31,CN,1699037456
303,nagqu,31.5,92.0,-3.11,64,100,4.98,CN,1699037456
304,carmi,38.0909,-88.1587,18.05,22,0,7.72,US,1699037456
305,general acha,-37.377,-64.6043,22.62,24,5,5.71,AR,1699037457
306,leeton,-34.5667,146.4,11.72,87,0,2.01,AU,1699037457
307,smithers,54.7804,-127.1743,2.18,100,100,2.06,CA,1699037457
308,fisterra,42.9049,-9.2629,14.45,89,100,11.99,ES,1699037457
309,kenai,60.5544,-151.2583,3.94,88,100,0.0,US,1699037457
310,sinabang,2.4803,96.3801,25.66,88,94,2.79,ID,1699037457
311,coquimbo,-29.9533,-71.3436,20.85,49,0,6.69,CL,1699037458
312,shengli,37.4564,118.4856,11.71,71,100,2.02,CN,1699037458
313,wanganui,-39.9333,175.05,14.22,88,12,1.34,NZ,1699037458
314,detroit lakes,46.8172,-95.8453,3.38,79,75,5.66,US,1699037458
315,labytnangi,66.6572,66.4183,-7.17,96,100,3.0,RU,1699037458
316,bere,9.3202,16.1552,25.27,75,97,1.71,TD,1699037458
317,flying fish cove,-10.4217,105.6791,25.82,94,100,4.63,CX,1699037323
318,dauphin,51.1494,-100.0502,-0.92,55,0,5.14,CA,1699037459
319,evergreen,39.6333,-105.3172,18.98,30,52,3.13,US,1699037205
320,richards bay,-28.783,32.0377,19.64,80,100,7.26,ZA,1699037459
321,berdigestyakh,62.0989,126.6992,-27.3,100,86,0.41,RU,1699037459
322,tshabong,-26.05,22.45,19.08,89,100,4.01,BW,1699037460
323,justo daract,-33.8594,-65.1828,21.17,27,0,6.97,AR,1699037460
324,ago-are,8.5,3.4167,27.95,61,89,2.04,NG,1699037460
325,weno,7.4515,151.8468,25.97,94,40,1.54,FM,1699037460
326,holualoa,19.6228,-155.9522,27.1,69,0,2.06,US,1699037460
327,bogra,24.85,89.3667,23.26,71,0,1.82,BD,1699037460
328,shihezi,44.3,86.0333,7.09,34,96,2.17,CN,1699037460
329,brokopondo,4.75,-55.1667,34.28,45,5,1.14,SR,1699037461
330,piriapolis,-34.8682,-55.2744,15.09,85,100,8.23,UY,1699037461
331,meadow lakes,61.6247,-149.6011,5.66,74,100,0.0,US,1699037461
332,kingscliff,-28.2667,153.5667,18.18,94,75,0.51,AU,1699037461
333,quellon,-43.1167,-73.6167,10.44,82,100,4.09,CL,1699037461
334,hanceville,34.0607,-86.7675,18.98,21,0,2.74,US,1699037461
335,tralee,52.2704,-9.7026,8.14,93,40,1.54,IE,1699037462
336,male,4.1748,73.5089,27.97,83,75,3.6,MV,1699037406
337,ma'an,26.9775,110.7211,18.83,74,97,3.3,CN,1699037462
338,the pas,53.8251,-101.2541,-5.99,68,75,6.69,CA,1699037462
339,bikenibeu village,1.3673,173.1241,24.98,94,20,1.03,KI,1699037324
340,margaret river,-33.95,115.0667,16.36,66,42,5.54,AU,1699037463
341,dunedin,-45.8742,170.5036,13.78,71,100,1.82,NZ,1699037463
342,darnah,32.767,22.6367,27.03,32,0,8.78,LY,1699037463
343,dubbo,-32.25,148.6167,15.07,82,100,3.6,AU,1699037463
344,fada,9.5667,8.3,24.02,61,12,1.17,NG,1699037464
345,watertown,42.3709,-71.1828,14.42,36,0,8.75,US,1699037256
346,usogorsk,63.4106,48.6872,-2.96,95,96,3.95,RU,1699037367
347,greymouth,-42.4667,171.2,11.55,91,77,2.47,NZ,1699037464
348,idri,27.5,13.2667,24.47,20,0,4.01,LY,1699037464
349,tazacorte,28.629,-17.9293,22.54,86,75,4.12,ES,1699037464
350,tocopilla,-22.092,-70.1979,20.59,64,9,3.05,CL,1699037465
351,ilula,-7.6766,36.0366,18.67,85,100,2.31,TZ,1699037465
352,wynyard,-41.0,145.7167,9.43,98,100,3.27,AU,1699037465
353,kinna,57.5073,12.6946,9.69,92,100,2.75,SE,1699037465
354,baishishan,43.5833,127.5667,-1.57,66,97,1.61,CN,1699037466
355,mhamid,29.82,-5.72,26.56,21,0,1.94,MA,1699037466
356,fortuna,40.5982,-124.1573,21.63,91,0,1.54,US,1699037466
357,big spring,32.2504,-101.4787,21.25,44,0,6.17,US,1699037466
358,harper,4.375,-7.7169,25.92,86,3,3.47,LR,1699037466
359,koge,55.458,12.1821,10.12,89,100,2.57,DK,1699037467
360,caleta de carquin,-11.0925,-77.6267,21.38,69,16,5.13,PE,1699037467
361,kivioli,59.3531,26.9711,6.78,83,97,8.04,EE,1699037467
362,fort bragg,35.139,-79.006,18.23,28,0,2.57,US,1699037468
363,colonia,50.9333,6.95,9.9,72,100,3.81,DE,1699037468
364,forbes,-33.3833,148.0167,13.17,83,9,2.51,AU,1699037468
365,gornyy,55.1153,83.9059,-12.23,92,100,4.49,RU,1699037468
366,kangding,30.0513,101.9603,6.12,94,86,0.48,CN,1699037468
367,akjoujt,19.6969,-14.4164,31.93,16,5,5.89,MR,1699037469
368,seminole,28.7086,-81.2081,27.05,74,91,2.24,US,1699037390
369,chimoio,-19.1164,33.4833,19.97,64,20,1.95,MZ,1699037337
370,geoktschai,40.6531,47.7406,14.42,76,40,0.0,AZ,1699037469
371,itaituba,-4.2761,-55.9836,38.09,50,20,3.09,BR,1699037469
372,taoudenni,22.6783,-3.9836,31.99,9,0,2.33,ML,1699037469
373,sastre,-31.7676,-61.8289,19.29,43,1,7.82,AR,1699037470
374,dalbandin,28.8947,64.4101,21.35,24,50,1.99,PK,1699037470
375,abeche,13.8292,20.8324,29.54,19,50,3.8,TD,1699037470
376,dalhart,36.0595,-102.5133,26.01,14,0,5.66,US,1699037229
377,peterhead,57.5058,-1.7981,8.22,81,60,6.91,GB,1699037470
378,tres arroyos,-38.3739,-60.2798,18.99,29,3,5.76,AR,1699037470
379,saint-pierre,-21.3393,55.4781,23.65,94,100,1.54,RE,1699037471
380,east london,-33.0153,27.9116,18.52,94,20,2.2,ZA,1699037471
381,igarka,67.4667,86.5833,-10.06,86,100,11.47,RU,1699037471
382,avallon,47.4833,3.9,6.11,93,43,5.66,FR,1699037471
383,sake,-1.5736,29.045,17.47,97,99,0.79,CD,1699037472
384,la ronge,55.1001,-105.2842,-5.86,73,100,2.06,CA,1699037472
385,honefoss,60.168,10.2565,3.29,99,100,3.4,NO,1699037215
386,gao,16.6362,1.637,30.12,13,4,3.68,ML,1699037472
387,howrah,22.5892,88.3103,26.0,83,75,2.57,IN,1699037472
388,pahrump,36.2083,-115.9839,26.29,9,63,1.29,US,1699037473
389,ulsteinvik,62.3432,5.8487,10.07,64,100,3.64,NO,1699037473
390,marrakesh,31.6315,-8.0083,21.04,64,40,3.09,MA,1699037247
391,ashland,40.8167,-82.2665,15.98,52,40,8.16,US,1699037331
392,eduardo castex,-35.915,-64.2945,22.32,32,3,5.33,AR,1699037473
393,sesheke,-17.4759,24.2968,25.57,47,64,2.14,ZM,1699037474
394,linhares,-19.3911,-40.0722,29.8,61,100,4.19,BR,1699037439
395,pandan,14.0453,124.1694,26.62,85,41,2.59,PH,1699037474
396,kalaleh,37.3807,55.4916,15.78,59,75,0.0,IR,1699037474
397,derebucak,37.3918,31.5092,11.15,97,22,2.49,TR,1699037474
398,qui nhon,13.7667,109.2333,24.69,91,26,2.78,VN,1699037474
399,taro,-8.3862,115.28,23.0,92,24,0.31,ID,1699037475
400,port elizabeth,-33.918,25.5701,18.51,82,0,2.06,ZA,1699037157
401,lake charles,30.2131,-93.2044,23.99,50,0,2.57,US,1699037327
402,enewetak,11.3474,162.3373,28.03,77,87,6.8,MH,1699037345
403,christchurch,-43.5333,172.6333,11.97,96,91,1.03,NZ,1699037250
404,viedma,-40.8135,-62.9967,19.65,23,0,6.32,AR,1699037475
405,whakatane,-37.9585,176.9854,13.62,99,26,0.85,NZ,1699037476
406,yuzhno-kurilsk,44.0306,145.8556,11.32,83,100,6.55,RU,1699037476
407,kristiansund,63.1115,7.732,10.03,61,0,7.2,NO,1699037476
408,kawambwa,-9.7915,29.0791,22.01,61,100,1.41,ZM,1699037476
409,hasaki,35.7333,140.8333,16.27,75,5,7.55,JP,1699037476
410,wajir,1.7471,40.0573,23.82,89,96,2.37,KE,1699037476
411,itamaraca,-7.7478,-34.8256,30.03,64,100,4.33,BR,1699037477
412,culfa,38.9558,45.6308,13.93,64,100,0.43,AZ,1699037477
413,susuman,62.7833,148.1667,-19.98,100,96,0.93,RU,1699037477
414,bata,1.8639,9.7658,24.04,90,100,0.36,GQ,1699037477
415,rocha,-34.4833,-54.3333,12.73,90,100,11.04,UY,1699037478
416,salalah,17.0151,54.0924,28.05,69,0,2.57,OM,1699037478
417,qaqortoq,60.7167,-46.0333,-0.52,74,100,1.38,GL,1699037312
418,kayangel,8.0823,134.7173,28.59,76,100,4.26,PW,1699037478
419,petauke,-14.2426,31.3253,22.53,44,6,4.71,ZM,1699037478
420,vallenar,-28.5708,-70.7581,27.55,10,0,5.22,CL,1699037479
421,brisas de zicatela,15.8369,-97.0419,30.64,51,100,2.53,MX,1699037479
422,kargat,55.1956,80.2811,-9.46,88,100,5.86,RU,1699037479
423,pak phanang,8.3511,100.202,26.77,79,100,0.38,TH,1699037479
424,lumphat,13.4878,106.9816,22.72,97,99,1.53,KH,1699037479
425,omaruru,-21.4333,15.9333,23.16,35,77,4.57,NA,1699037480
426,galveston,29.3669,-94.9669,25.1,67,40,4.63,US,1699037480
427,cidreira,-30.1811,-50.2056,18.21,92,100,9.44,BR,1699037190
428,reinosa,42.9996,-4.138,7.81,87,88,2.14,ES,1699037480
429,alofi,-19.0595,-169.9187,24.94,78,40,7.2,NU,1699037364
430,valle de la pascua,9.2155,-66.0073,30.2,59,95,1.4,VE,1699037481
431,saldanha,-33.0117,17.9442,16.03,75,69,2.68,ZA,1699037298
432,leava,-14.3,-178.1667,27.56,82,100,8.78,WF,1699037481
433,madang,-5.2246,145.7966,24.33,93,100,1.41,PG,1699037481
434,lepsy,46.235,78.9456,1.0,47,17,4.91,KZ,1699037482
435,ryazanskaya,44.9553,39.5889,15.81,85,11,2.36,RU,1699037482
436,banda aceh,5.5577,95.3222,26.2,84,91,2.01,ID,1699037482
437,inarajan village,13.2736,144.7484,27.08,94,98,6.82,GU,1699037482
438,kale,50.9581,1.8521,8.89,80,81,12.08,FR,1699037483
439,hammerfest,70.6634,23.6821,0.25,80,75,4.63,NO,1699037483
440,valdepenas,38.7621,-3.3848,11.43,82,7,8.43,ES,1699037483
441,pemba,-12.974,40.5178,26.26,75,100,9.32,MZ,1699037483
442,anloga,5.7947,0.8973,27.15,84,78,5.31,GH,1699037483
443,laguna,38.421,-121.4238,24.8,48,0,0.45,US,1699037484
444,terrace,54.5163,-128.6035,4.95,93,100,1.54,CA,1699037484
445,roma,43.2128,-75.4557,15.46,33,0,6.17,US,1699037214
446,benghazi,32.1167,20.0667,26.54,40,0,6.22,LY,1699037484
447,ukiah,39.1502,-123.2078,24.65,69,59,0.63,US,1699037417
448,blackwater,-23.5833,148.8833,20.94,100,44,3.5,AU,1699037484
449,kone,-21.0595,164.8658,20.57,85,81,1.65,NC,1699037484
450,bodaybo,57.8506,114.1933,-24.66,98,30,0.2,RU,1699037250
451,ugoofaaru,5.6667,73.0,27.2,78,100,2.28,MV,1699037486
452,kish,26.5578,54.0194,29.15,61,0,6.17,IR,1699037486
453,sao tome,0.3365,6.7273,25.88,85,100,2.73,ST,1699037486
454,diamantino,-14.4086,-56.4461,31.68,44,99,4.39,BR,1699037486
455,kuanda,56.3161,116.0806,-22.79,90,12,0.1,RU,1699037486
456,canico,32.6333,-16.85,22.06,81,40,4.63,PT,1699037486
457,zheshart,62.0731,49.5733,-4.19,88,78,3.25,RU,1699037487
458,itoman,26.1247,127.6694,25.43,78,20,2.57,JP,1699037487
459,paita,-5.0892,-81.1144,22.73,71,8,8.11,PE,1699037487
460,burao,9.5221,45.5336,22.04,78,96,1.74,SO,1699037487
461,tamiahua,21.2667,-97.45,22.72,72,100,2.61,MX,1699037487
462,taybad,34.74,60.7756,17.6,22,100,1.72,IR,1699037488
463,saint-philippe,-21.3585,55.7679,22.77,82,64,1.49,RE,1699037488
464,rio cauto,20.5603,-76.9161,31.44,60,3,4.17,CU,1699037488
465,kabalo,-6.05,26.9167,19.84,98,100,0.45,CD,1699037488
466,biltine,14.5333,20.9167,29.4,18,100,3.87,TD,1699037488
467,zhuanghe,39.7008,122.9911,7.63,41,1,1.64,CN,1699037488
468,polyarnyy,69.1989,33.4478,-7.52,91,24,2.89,RU,1699037488
469,selfoss,63.9331,-20.9971,2.25,58,95,5.36,IS,1699037489
470,sao felix do xingu,-6.6447,-51.995,36.0,32,76,2.46,BR,1699037489
471,kiunga,-6.1219,141.2906,22.59,100,99,1.14,PG,1699037489
472,alaghsas,17.0187,8.0168,30.94,12,0,2.06,NE,1699037489
473,arteche,12.2645,125.4048,26.68,87,57,2.91,PH,1699037489
474,yakakent,41.6325,35.5289,18.18,75,0,3.0,TR,1699037490
475,sampacho,-33.3839,-64.7221,20.23,31,2,7.07,AR,1699037490
476,westport,41.1415,-73.3579,14.38,46,0,5.66,US,1699037490
477,tupiza,-21.45,-65.7167,26.95,4,6,1.52,BO,1699037490
478,abancay,-13.6339,-72.8814,24.62,46,98,4.03,PE,1699037490
479,la ciotat,43.1748,5.6045,12.93,69,53,10.04,FR,1699037490
480,maffra,-37.9667,146.9833,9.4,87,99,1.35,AU,1699037490
481,port macquarie,-31.4333,152.9167,13.83,91,36,1.39,AU,1699037491
482,yulinshi,38.2906,109.7494,9.02,39,100,0.37,CN,1699037491
483,balabac,7.9868,117.0645,27.84,77,10,2.38,PH,1699037491
484,colchester,51.8892,0.9042,10.41,92,26,3.84,GB,1699037491
485,piti village,13.4626,144.6933,27.03,93,75,3.6,GU,1699037491
486,qulsary,46.9531,54.0198,11.86,45,100,3.28,KZ,1699037491
487,barcelos,41.5388,-8.6151,16.08,88,100,4.66,PT,1699037414
488,cockburn town,21.4612,-71.1419,28.18,74,70,9.3,TC,1699037413
489,khovd,48.0056,91.6419,-9.06,40,32,3.21,MN,1699037492
490,forster,-32.1667,152.5167,12.38,100,79,1.83,AU,1699037492
491,machali,-34.1833,-70.6667,23.6,29,0,4.63,CL,1699037492
492,arapgir,39.0412,38.4952,13.71,73,3,1.32,TR,1699037492
493,bridgewater,44.3835,-64.5155,10.79,70,83,4.02,CA,1699037492
494,lockwood,45.8191,-108.4149,16.34,50,20,2.06,US,1699037492
495,val-d'or,48.1002,-77.7828,5.05,93,100,7.2,CA,1699037243
496,kharkhorin,47.1975,102.8238,-5.05,95,100,9.17,MN,1699037493
497,nemuro,43.3236,145.575,12.55,86,100,5.55,JP,1699037493
498,mirnyy,62.5353,113.9611,-16.38,94,100,2.65,RU,1699037377
499,chaman,30.9236,66.4512,15.09,27,100,1.38,PK,1699037493
500,apatity,67.5641,33.4031,-10.75,93,81,0.68,RU,1699037493
501,san martin de valdeiglesias,40.3623,-4.3439,13.14,81,100,3.09,ES,1699037493
502,totskoye,52.5248,52.7623,4.94,85,0,3.29,RU,1699037494
503,ebaye,8.7748,167.7392,28.01,74,40,5.14,MH,1699037494
504,bargaal,11.2864,51.0773,26.66,85,67,4.03,SO,1699037494
505,bich'vinta,43.1592,40.3378,16.1,82,88,4.04,GE,1699037494
506,harstad,68.799,16.5293,-1.03,88,5,8.94,NO,1699037494
507,alta,69.9689,23.2717,-6.41,73,75,2.57,NO,1699037494
508,saint augustine beach,29.8505,-81.2654,26.16,100,75,9.26,US,1699037495
509,mokhsogollokh,61.4681,128.9203,-27.41,100,96,0.99,RU,1699037495
510,isangel,-19.55,169.2667,20.06,88,97,0.51,VU,1699037376
511,metahara,8.9,39.9167,21.89,81,91,1.52,ET,1699037495
512,quelimane,-17.8786,36.8883,22.12,79,69,1.98,MZ,1699037495
513,rio grande,-32.035,-52.0986,17.06,87,96,8.98,BR,1699037385
514,cururupu,-1.8283,-44.8683,31.1,56,45,3.55,BR,1699037496
515,fort mcmurray,56.7268,-111.381,-1.23,80,100,1.54,CA,1699037496
516,tangalle,6.024,80.7911,24.09,89,99,0.98,LK,1699037496
517,pajok,3.8651,32.4821,20.46,91,100,1.59,SS,1699037379
518,galliano,29.4422,-90.2992,24.0,60,0,4.12,US,1699037496
519,tver,56.8619,35.8931,2.38,90,9,2.68,RU,1699037496
520,quang ngai,15.1167,108.8,23.64,91,28,1.82,VN,1699037496
521,ta`u,-14.2336,-169.5144,26.55,83,100,10.06,AS,1699037497
522,tyuratam,45.6507,63.3156,8.59,55,78,4.05,KZ,1699037497
523,montgomery,39.1501,-77.1997,16.08,36,0,3.6,US,1699037491
524,klyuchi,52.2667,79.1667,-4.16,80,96,5.21,RU,1699037497
525,bezhetsk,57.7851,36.6965,0.55,92,100,3.53,RU,1699037497
526,bubaque,11.2833,-15.8333,28.11,79,24,4.56,GW,1699037497
527,sittwe,20.15,92.9,25.22,81,9,2.34,MM,1699037497
528,steamboat springs,40.485,-106.8317,12.41,42,75,3.6,US,1699037372
529,rondonopolis,-16.4708,-54.6356,35.59,29,94,1.27,BR,1699037420
530,taltal,-25.4,-70.4833,18.84,64,24,2.69,CL,1699037498
531,boyolangu,-8.1181,111.8935,24.37,92,75,1.01,ID,1699037498
532,gevas,38.2968,43.1083,6.78,77,50,1.77,TR,1699037498
533,kuta,-8.7233,115.1723,26.97,94,40,2.24,ID,1699037210
534,urangan,-25.3,152.9,20.53,74,7,3.67,AU,1699037498
535,katsuura,35.1333,140.3,21.03,76,3,7.08,JP,1699037318
536,gisborne,-38.6533,178.0042,13.49,83,14,5.33,NZ,1699037294
537,beni mellal,32.3373,-6.3498,19.79,56,20,1.54,MA,1699037499
538,clinton,42.587,-82.9199,13.45,48,100,7.2,US,1699037302
539,puerto deseado,-47.7503,-65.8938,10.28,56,46,5.73,AR,1699037499
540,arkhangel'sk,64.5401,40.5433,-3.82,91,100,2.39,RU,1699037499
541,ptolemaida,40.5147,21.6786,16.05,76,100,4.06,GR,1699037499
542,bandon,51.7469,-8.7425,6.77,88,100,2.32,IE,1699037499
543,kumbo,6.2,10.6667,16.02,95,100,1.09,CM,1699037499
544,fabens,31.5023,-106.1586,23.65,17,0,2.58,US,1699037500
545,narasapur,16.45,81.6667,25.06,91,61,2.15,IN,1699037500
546,lodeynoye pole,60.726,33.5531,0.69,86,100,3.78,RU,1699037500
547,liberal,37.0431,-100.921,25.58,17,0,0.0,US,1699037500
548,gamba,-2.65,10.0,25.03,87,86,1.43,GA,1699037500
549,tabou,4.423,-7.3528,26.13,84,13,3.38,CI,1699037500
550,rockport,28.0206,-97.0544,27.01,68,0,2.57,US,1699037455
551,laojunmiao,39.8333,97.7333,3.1,43,22,0.54,CN,1699037365
552,barro alto,-11.7608,-41.9117,28.87,51,100,1.78,BR,1699037501
553,mayya,61.7333,130.2811,-29.27,100,74,1.19,RU,1699037501
554,misratah,32.3754,15.0925,28.75,27,22,7.42,LY,1699037501
555,belyy yar,53.6039,91.3903,-11.06,85,75,1.0,RU,1699037367
556,port nelson,23.6333,-74.8333,28.05,77,100,8.42,BS,1699037501
557,san carlos centro,-31.7286,-61.0919,19.47,51,1,8.18,AR,1699037501
558,vallo della lucania,40.2297,15.2658,13.08,87,78,3.46,IT,1699037501
559,robore,-18.3333,-59.75,26.05,50,75,5.14,BO,1699037502
560,guerrero negro,27.9769,-114.0611,28.1,30,0,2.72,MX,1699037502
561,fort st. john,56.2499,-120.8529,-0.06,86,100,1.54,CA,1699037502
562,queenstown,-31.8976,26.8753,18.6,73,100,4.61,ZA,1699037502
563,debark',13.1561,37.8981,11.5,80,100,0.75,ET,1699037502
564,la'ie,21.6477,-157.9253,27.81,88,2,0.45,US,1699037502
565,abadan,30.3392,48.3043,22.97,56,0,1.03,IR,1699037502
566,brainerd,46.358,-94.2008,7.14,67,0,5.66,US,1699037502
567,nicoya,10.1483,-85.452,27.0,86,100,2.68,CR,1699037503
568,santa rosalia,27.3167,-112.2833,27.68,29,0,4.05,MX,1699037503
569,petite riviere,-20.1894,57.4453,23.86,79,100,2.18,MU,1699037503
570,kukes,42.0769,20.4219,16.08,94,97,2.99,AL,1699037503
571,baranchinskiy,58.1617,59.6991,-0.15,87,100,5.14,RU,1699037503
572,egilsstadir,65.2653,-14.3948,3.95,93,100,7.2,IS,1699037503
573,lauro de freitas,-12.8944,-38.3272,29.01,74,40,7.72,BR,1699037406
574,puttalam,8.0362,79.8283,24.24,95,100,2.79,LK,1699037459
575,alesund,62.4723,6.1549,10.08,50,75,9.77,NO,1699037301
576,bolobo,-2.1667,16.2333,22.52,92,100,0.58,CD,1699037504
577,toamasina,-18.1667,49.3833,23.0,88,75,4.12,MG,1699037401
578,lorengau,-2.0226,147.2712,26.64,80,98,1.35,PG,1699037504
579,yeed,4.55,43.0333,25.39,78,99,2.95,SO,1699037504
580,dongola,19.1667,30.4833,28.9,21,0,5.92,SD,1699037504
581,batroun,34.2553,35.6581,20.86,86,0,0.44,LB,1699037504
582,ha'il,27.5219,41.6907,22.01,73,40,1.03,SA,1699037505
583,rebola,3.7167,8.8333,23.39,88,100,0.81,GQ,1699037505
584,reynosa,26.0833,-98.2833,27.85,53,20,2.57,MX,1699037402
585,kashin,57.3592,37.6081,-1.71,92,88,3.11,RU,1699037505
586,palmer,42.1584,-72.3287,13.92,38,20,6.69,US,1699037505
587,obuase,6.206,-1.6619,23.9,89,100,1.06,GH,1699037505
588,tari,12.4086,4.4914,28.45,25,19,1.32,NG,1699037506
589,orkney,-26.9802,26.6727,21.58,32,100,4.1,ZA,1699037506
590,chapeco,-27.0964,-52.6183,16.86,100,100,7.72,BR,1699037506
591,den burg,53.0542,4.7972,11.09,88,75,12.86,NL,1699037506
592,moyale,3.5167,39.0584,19.72,92,100,1.98,KE,1699037506
593,santa cruz,-17.8,-63.1667,23.7,53,75,8.75,BO,1699037213
594,lerwick,60.1545,-1.1494,9.0,84,100,4.32,GB,1699037506
595,dalnegorsk,44.5604,135.5701,-1.89,45,90,3.13,RU,1699037507
596,moramanga,-18.9333,48.2,17.2,94,92,1.69,MG,1699037507
597,lindi,-10.0,39.7167,25.18,80,100,3.21,TZ,1699037507
598,majenang,-7.2975,108.7642,23.9,98,24,1.21,ID,1699037507
599,wotje,9.4543,170.2367,27.68,80,26,7.18,MH,1699037507
600,santa terezinha,-29.9002,-50.0904,18.88,92,100,8.96,BR,1699037507
601,luena,-11.7833,19.9167,21.1,83,20,4.63,AO,1699037508
602,farmington,36.7281,-108.2187,19.56,54,0,3.09,US,1699037508
